{"jdcatgeo": [{"name": "日本", "lat": "35.689444", "lon": "139.69167"}, {"name": "アジア", "lat": "", "lon": ""}, {"name": "ヨーロッパ", "lat": "", "lon": ""}, {"name": "北アメリカ", "lat": "", "lon": ""}, {"name": "南アフリカ", "lat": "-25.7478676", "lon": "28.2292712"}, {"name": "オセアニア", "lat": "", "lon": ""}, {"name": "台湾", "lat": "25.0329694", "lon": "121.5654177"}, {"name": "関東州", "lat": "38.9220986700144", "lon": "121.63305090205108"}, {"name": "中国", "lat": "39.9041999", "lon": "116.4073963"}, {"name": "朝鮮", "lat": "", "lon": ""}, {"name": "南樺太", "lat": "46.95743639477233", "lon": "142.7261067171968"}, {"name": "韓国", "lat": "37.552361", "lon": "126.991432"}, {"name": "北朝鮮", "lat": "39.0392193", "lon": "125.7625241"}, {"name": "ロシア", "lat": "55.755826", "lon": "37.6172999"}, {"name": "アメリカ合衆国", "lat": "38.9071923", "lon": "-77.0368707"}, {"name": "南洋群島", "lat": "", "lon": ""}, {"name": "パラオ", "lat": "7.4951158", "lon": "134.6336896"}, {"name": "ミクロネシア", "lat": "6.9147118", "lon": "158.1610274"}, {"name": "北マリアナ諸島", "lat": "15.1609", "lon": "145.7061"}, {"name": "マーシャル", "lat": "7.1164214", "lon": "171.1857736"}, {"name": "南アメリカ", "lat": "", "lon": ""}, {"name": "アフリカ", "lat": "", "lon": ""}, {"name": "カナダ", "lat": "45.4215296", "lon": "-75.6971931"}, {"name": "エジプト", "lat": "30.0444196", "lon": "31.2357116"}, {"name": "ニュージーランド", "lat": "-41.2864603", "lon": "174.776236"}, {"name": "チリ", "lat": "-33.4488897", "lon": "-70.6692655"}, {"name": "東京都", "lat": "35.689444", "lon": "139.69167"}, {"name": "大阪府", "lat": "34.686389", "lon": "135.52"}, {"name": "香港", "lat": "22.318933", "lon": "114.169922"}, {"name": "ペルー", "lat": "-12.0463731", "lon": "-77.042754"}, {"name": "兵庫県", "lat": "34.691257", "lon": "135.183078"}, {"name": "京都府", "lat": "35.021242", "lon": "135.755613"}, {"name": "愛知県", "lat": "35.180278", "lon": "136.906667"}, {"name": "神奈川県", "lat": "35.447778", "lon": "139.642502"}, {"name": "インド", "lat": "28.6139391", "lon": "77.2090212"}, {"name": "イギリス", "lat": "51.5073509", "lon": "-0.1277583"}, {"name": "高知県", "lat": "33.559722", "lon": "133.531111"}, {"name": "鹿児島県", "lat": "31.560278", "lon": "130.558056"}, {"name": "長崎県", "lat": "32.75004", "lon": "129.867251"}, {"name": "北海道", "lat": "43.064325", "lon": "141.346878"}, {"name": "アルゼンチン", "lat": "-34.6036844", "lon": "-58.3815591"}, {"name": "オーストラリア", "lat": "-35.308129", "lon": "149.124402"}, {"name": "千葉県", "lat": "35.60456", "lon": "140.123154"}, {"name": "埼玉県", "lat": "35.857033", "lon": "139.649012"}, {"name": "ja", "lat": "", "lon": ""}, {"name": "オーストリア", "lat": "48.2081743", "lon": "16.3738189"}, {"name": "ベルギー", "lat": "50.8503463", "lon": "4.3517211"}, {"name": "デンマーク", "lat": "55.6760968", "lon": "12.5683372"}, {"name": "フィンランド", "lat": "60.1698557", "lon": "24.9383791"}, {"name": "フランス", "lat": "48.856614", "lon": "2.3522219"}, {"name": "ドイツ", "lat": "52.5200066", "lon": "13.404954"}, {"name": "アイスランド", "lat": "64.1265206", "lon": "-21.8174392"}, {"name": "アイルランド", "lat": "53.3498053", "lon": "-6.2603097"}, {"name": "イタリア", "lat": "41.9027835", "lon": "12.4963655"}, {"name": "ルクセンブルク", "lat": "49.611621", "lon": "6.1319346"}, {"name": "オランダ", "lat": "52.3702157", "lon": "4.8951679"}, {"name": "ノルウェー", "lat": "59.9138688", "lon": "10.7522454"}, {"name": "スペイン", "lat": "40.4167754", "lon": "-3.7037902"}, {"name": "スウェーデン", "lat": "59.3293235", "lon": "18.0685808"}, {"name": "スイス", "lat": "46.9479739", "lon": "7.4474468"}, {"name": "アルメニア", "lat": "40.1791857", "lon": "44.4991029"}, {"name": "ベラルーシ", "lat": "53.9045398", "lon": "27.5615244"}, {"name": "ボスニア・ヘルツェゴビナ", "lat": "43.8562586", "lon": "18.4130763"}, {"name": "ブルガリア", "lat": "42.6977082", "lon": "23.3218675"}, {"name": "クロアチア", "lat": "45.8150108", "lon": "15.9819189"}, {"name": "チェコ", "lat": "50.0755381", "lon": "14.4378005"}, {"name": "エストニア", "lat": "59.4369608", "lon": "24.7535747"}, {"name": "北マケドニア", "lat": "41.9973462", "lon": "21.4279956"}, {"name": "グルジア", "lat": "41.7151377", "lon": "44.827096"}, {"name": "ハンガリー", "lat": "47.497912", "lon": "19.040235"}, {"name": "カザフスタン", "lat": "51.1605227", "lon": "71.4703558"}, {"name": "ラトビア", "lat": "56.9496487", "lon": "24.1051865"}, {"name": "リトアニア", "lat": "54.6871555", "lon": "25.2796514"}, {"name": "ポーランド", "lat": "52.2296756", "lon": "21.0122287"}, {"name": "ルーマニア", "lat": "44.4267674", "lon": "26.1025384"}, {"name": "スロバキア", "lat": "48.1485965", "lon": "17.1077478"}, {"name": "ウクライナ", "lat": "50.4501", "lon": "30.5234"}, {"name": "カメルーン", "lat": "3.8480325", "lon": "11.5020752"}, {"name": "ガーナ", "lat": "5.6037168", "lon": "-0.1869644"}, {"name": "ナイジェリア", "lat": "9.0764785", "lon": "7.398574"}, {"name": "マレーシア", "lat": "3.139003", "lon": "101.686855"}, {"name": "パキスタン", "lat": "33.6844202", "lon": "73.0478848"}, {"name": "フィリピン", "lat": "14.5995124", "lon": "120.9842195"}, {"name": "シンガポール", "lat": "1.355429", "lon": "103.867722"}, {"name": "タイ", "lat": "13.7563309", "lon": "100.5017651"}, {"name": "トルコ", "lat": "39.9333635", "lon": "32.8597419"}, {"name": "ドミニカ共和国", "lat": "18.4860575", "lon": "-69.9312117"}, {"name": "ボリビア", "lat": "-16.489689", "lon": "-68.1192936"}, {"name": "コロンビア", "lat": "4.7109886", "lon": "-74.072092"}, {"name": "エクアドル", "lat": "-0.1806532", "lon": "-78.4678382"}, {"name": "メキシコ", "lat": "19.4326077", "lon": "-99.133208"}, {"name": "パラグアイ", "lat": "-25.2637399", "lon": "-57.575926"}, {"name": "ウルグアイ", "lat": "-34.9011127", "lon": "-56.1645314"}, {"name": "ブラジル", "lat": "-15.794392", "lon": "-47.882004"}, {"name": "富山県", "lat": "36.695271", "lon": "137.211333"}, {"name": "長野県", "lat": "36.651306", "lon": "138.180904"}, {"name": "静岡県", "lat": "34.976944", "lon": "138.383056"}, {"name": "宮崎県", "lat": "31.911111", "lon": "131.423889"}, {"name": "宮城県", "lat": "38.26893", "lon": "140.872147"}, {"name": "新潟県", "lat": "37.902451", "lon": "139.023245"}, {"name": "滋賀県", "lat": "35.004444", "lon": "135.868333"}, {"name": "島根県", "lat": "35.472293", "lon": "133.05052"}, {"name": "岡山県", "lat": "34.661739", "lon": "133.935032"}, {"name": "愛媛県", "lat": "33.841667", "lon": "132.766111"}, {"name": "福岡県", "lat": "33.606389", "lon": "130.418056"}, {"name": "茨城県", "lat": "36.341737", "lon": "140.446824"}, {"name": "栃木県", "lat": "36.565832", "lon": "139.88362"}, {"name": "群馬県", "lat": "36.391194", "lon": "139.060883"}, {"name": "岐阜県", "lat": "35.391111", "lon": "136.722222"}, {"name": "広島県", "lat": "34.396558", "lon": "132.459646"}, {"name": "セネガル", "lat": "14.716677", "lon": "-17.4676861"}, {"name": "スリランカ", "lat": "6.8867616", "lon": "79.9187142"}, {"name": "ベトナム", "lat": "21.0277644", "lon": "105.8341598"}, {"name": "ウズベキスタン", "lat": "41.2994958", "lon": "69.2400734"}, {"name": "ミャンマー", "lat": "19.7633057", "lon": "96.0785104"}]}
